{
  "geographical_area_list": {
	 "geographical_area": [
		{ "id": "ISEP",
		  "description": "Campus do ISEP",
		  "type": "urban area",
		  "width": 0.261,
		  "length": 0.249,
		  "location": {
			"latitude": 41.178553,
			"longitude": -8.608035,
			"altitude": 111
		  },
		  "area_sensor": [
		     { "sensor": { 
				  "id": "RF12345",
			      "name": "Meteo station ISEP - rainfall",
			      "start_date": "2017-11-12",
			      "type": "rainfall",
				  "units": "l/m2"
			   },
			   "location": {
			      "latitude": 41.179230,
			      "longitude": -8.606409,
			      "altitude": 125
		       }
			 },
			 { "sensor": { 
			      "id": "TT12346",
			      "name": "Meteo station ISEP - temperature",
			      "start_date": "2018-11-15",
			      "type": "temperature",
				  "units": "C"
			   },
			   "location": {
			      "latitude": 41.179230,
			      "longitude": -8.606409,
			      "altitude": 125
		       }
			 }
		  ]
	    },
		{ "id": "PortoOc",
		  "description": "Porto Ocidental",
		  "type": "urban area",
		  "width": 5.2,
		  "length": 3.06,
		  "location": {
			"latitude": 41.162383,
			"longitude": -8.655640,
			"altitude": 115
		  },
		  "area_sensor": [
		     { "sensor": { 
				  "id": "RF123X5",
			      "name": "Meteo station PO W - rainfall",
			      "start_date": "2018-10-12",
			      "type": "rainfall",
				  "units": "l/m2"
			   },
			   "location": {
			      "latitude": 41.168085,
			      "longitude": -8.688717,
			      "altitude": 20
		       }
			 },
			 { "sensor": { 
			      "id": "TT1AC746",
			      "name": "Meteo station PO W - temperature",
			      "start_date": "2017-11-15",
			      "type": "temperature",
				  "units": "C"
			   },
			   "location": {
			      "latitude": 41.168085,
			      "longitude": -8.688717,
			      "altitude": 20
		       }
			 }
		  ]
	    },
		{ "id": "Porto",
		  "description": "City of Porto",
		  "type": "city",
		  "width": 10.09,
		  "length": 3.30,
		  "location": {
			"latitude": 41.149935,
			"longitude": -8.610857,
			"altitude": 118
		  },
		  "area_sensor": [
		     { "sensor": { 
				  "id": "RF12334",
			      "name": "Meteo station CMP - rainfall",
			      "start_date": "2017-11-15",
			      "type": "rainfall",
				  "units": "l/m2"
			   },
			   "location": {
			      "latitude": 41.179230,
			      "longitude": -8.606409,
			      "altitude": 139
		       }
			 },
			 { "sensor": { 
			      "id": "TT12346",
			      "name": "Meteo station CMP - temperature",
			      "start_date": "2017-11-16",
			      "type": "temperature",
				  "units": "C"
			   },
			   "location": {
			      "latitude": 41.179230,
			      "longitude": -8.606409,
			      "altitude": 139
		       }
			 }
		  ]
	    }
	  ]
   }
}